time(millisecond),datetime(utc),latitude,longitude,height_above_takeoff(meters),height_above_ground_at_drone_location(meters),ground_elevation_at_drone_location(meters),altitude_above_seaLevel(meters),height_sonar(meters),speed(m/s),distance(meters),satellites,gpslevel,voltage(v),max_altitude(meters),max_ascent(meters),max_speed(m/s),max_distance(meters), xSpeed(m/s), ySpeed(m/s), zSpeed(m/s), compass_heading(degrees), pitch(degrees), roll(degrees),isPhoto,isVideo,rc_elevator,rc_aileron,rc_throttle,rc_rudder,gimbal_heading(degrees),gimbal_pitch(degrees),battery_percent,voltageCell1,voltageCell2,voltageCell3,voltageCell4,voltageCell5,voltageCell6,current(A),battery_temperature(c),altitude(meters),ascent(meters),flycStateRaw,flycState,message
469700,,-27.0455964837187,153.107421598572,0,Available with any HD 360 subscription,Available with any HD 360 subscription,5.2051606,0,0,0,15,4,0,5.2051606,0,0,0,0,0,0,119.2, 0.8, -0.2,0,0,364,364,364,1684,89.6,1.6,52,3.87,3.86,3.855,3.86,0,0,0,42.3,5.2051606,0,41,Motors_Started,
469800,,-27.0455964654196,153.107421697646,0,,,5.2051606,0,0,0.0100216,15,4,0,5.2051606,0,0,0.0100216,0,0,0,119.2, 0.8, -0.2,0,0,364,364,364,1684,89.6,1.6,52,3.87,3.86,3.855,3.86,0,0,0,42.3,5.2051606,0,41,Motors_Started,
469900,,-27.0455964723074,153.107421663673,0,,,5.2051606,0,0,0.00657155,15,4,0,5.2051606,0,0,0.0100216,0,0,0,119.2, 0.8, -0.2,0,0,364,364,364,1684,89.5,1.6,52,3.87,3.86,3.855,3.86,0,0,0,42.3,5.2051606,0,41,Motors_Started,
470000,,-27.0455966080772,153.107421590839,0,,,5.2051606,0,0,0.0138506,15,4,15.444,5.2051606,0,0,0.0138506,0,0,0,119.2, 0.8, -0.3,0,0,364,364,364,1684,89.4,1.6,52,3.87,3.86,3.855,3.86,0,0,2.042,42.3,5.2051606,0,41,Motors_Started,
470100,2021-07-28 04:36:55,-27.0455966270959,153.107421553903,0,,,5.2051606,0,0,0.0165469,15,4,15.444,5.2051606,0,0,0.0165469,0,0,0,119.2, 0.8, -0.3,0,0,457,437,377,1651,89.3,1.6,52,3.87,3.86,3.855,3.86,0,0,2.042,42.3,5.2051606,0,41,Motors_Started,Setting new Return-To-Home altitude to 120m (394 ft). Data Recorder File Index is 65. Setting new Maximum Flight Altitude to 120m (394 ft)
470200,2021-07-28 04:36:55,-27.0455965936504,153.1074214833,0,,,5.2051606,0,0,2.71457,16,4,15.444,5.2051606,0,0,2.71457,0,0,0,119.2, 0.8, -0.3,0,0,838,971,780,1177,89.3,1.6,52,3.87,3.86,3.855,3.86,0,0,2.042,42.3,5.2051606,0,41,Motors_Started,
470300,2021-07-28 04:36:55,-27.0455966085912,153.107421444556,0,,,5.2051606,0,0,2.71717,16,4,15.444,5.2051606,0,0,2.71717,0,0,0,119.2, 0.8, -0.3,0,0,1024,1024,1024,1024,89.3,1.6,52,3.87,3.86,3.855,3.86,0,0,2.042,42.3,5.2051606,0,41,Motors_Started,
470400,2021-07-28 04:36:55,-27.0455967306538,153.107421376878,0,,,5.2051606,0,0,2.73201,16,4,15.444,5.2051606,0,0,2.73201,0,0,0,119.2, 0.8, -0.3,0,0,1024,1024,1024,1024,89.3,1.6,52,3.87,3.86,3.855,3.86,0,0,2.042,42.3,5.2051606,0,41,Motors_Started,
470500,2021-07-28 04:36:55,-27.0455967560121,153.107421336786,0,,,5.2051606,0,0,2.73577,16,4,15.444,5.2051606,0,0,2.73577,0,0,0,119.2, 0.8, -0.3,0,0,1024,1024,1024,1024,89.2,1.6,52,3.87,3.86,3.855,3.86,0,0,2.042,42.3,5.2051606,0,41,Motors_Started,
470600,2021-07-28 04:36:55,-27.0455968596385,153.107421275765,0,,,5.2051606,0,0,2.74847,16,4,15.444,5.2051606,0,0,2.74847,0,0,0,119.2, 0.8, -0.3,0,0,1024,1024,1024,1024,89.2,1.6,52,3.87,3.86,3.855,3.86,0,0,2.042,42.3,5.2051606,0,41,Motors_Started,
470700,2021-07-28 04:36:55,-27.0455968945918,153.107421234211,0,,,5.2051606,0,0,2.7533,16,4,15.444,5.2051606,0,0,2.7533,0,0,0,119.2, 0.8, -0.2,0,0,1024,1024,1024,1024,89.2,1.6,52,3.87,3.86,3.855,3.86,0,0,2.042,42.3,5.2051606,0,41,Motors_Started,
470800,2021-07-28 04:36:55,-27.0455966869278,153.107421020943,0,,,5.2051606,0,0,2.73668,16,4,15.444,5.2051606,0,0,2.7533,0,0,0,119.1, 0.8, -0.3,0,0,1024,1024,1069,1024,89.2,1.6,52,3.87,3.86,3.855,3.86,0,0,2.042,42.3,5.2051606,0,41,Motors_Started,
470900,2021-07-28 04:36:56,-27.045596700121,153.107420963191,0,,,5.2051606,0,0,2.73965,16,4,15.444,5.2051606,0,0,2.7533,0,0,0,119.1, 0.8, -0.3,0,0,1024,1024,1145,1024,89.2,1.6,52,3.87,3.86,3.855,3.86,0,0,2.042,42.3,5.2051606,0,10,Assisted_Takeoff,
471000,2021-07-28 04:36:56,-27.0455968222178,153.1074209231,0,,,5.2051606,0,0,2.7538,16,4,15.444,5.2051606,0,0,2.7538,0,0,0,119.1, 0.8, -0.3,0,0,1024,1024,1180,1024,89.2,1.6,52,3.87,3.86,3.855,3.86,0,0,2.042,42.3,5.2051606,0,10,Assisted_Takeoff,
471100,2021-07-28 04:36:56,-27.0455968453487,153.107420866695,0,,,5.2051606,0,0,2.7578,16,4,15.413,5.2051606,0,0,2.7578,0,0,0,119.1, 0.8, -0.3,0,0,1024,1024,1186,1024,89.2,1.6,52,3.867,3.867,3.862,3.866,0,0,4.363,42.3,5.2051606,0,10,Assisted_Takeoff,
471200,2021-07-28 04:36:56,-27.0455968031648,153.10742067378,0,,,5.2051606,0,0,2.75862,16,4,15.413,5.2051606,0,0,2.75862,0,0,0,119.1, 0.8, -0.3,0,0,1024,1024,1195,1024,89.2,1.6,52,3.867,3.867,3.862,3.866,0,0,4.363,42.3,5.2051606,0,10,Assisted_Takeoff,
471300,2021-07-28 04:36:56,-27.0455968211898,153.107420604332,0,,,5.2051606,0,0,2.76249,16,4,15.413,5.2051606,0,0,2.76249,0,0,0,119.1, 0.8, -0.3,0,0,1024,1024,1198,1024,89.2,1.6,52,3.867,3.867,3.862,3.866,0,0,4.363,42.3,5.2051606,0,10,Assisted_Takeoff,
471400,2021-07-28 04:36:56,-27.0455966371022,153.107420437387,0,,,5.2051606,0,0,2.74764,16,4,15.413,5.2051606,0,0,2.76249,0,0,0,119.1, 0.8, -0.3,0,0,1024,1024,1199,1024,89.1,1.6,52,3.867,3.867,3.862,3.866,0,0,4.363,42.3,5.2051606,0,10,Assisted_Takeoff,
471500,2021-07-28 04:36:56,-27.0455966356629,153.107420356705,0,,,5.2051606,0,0,2.74983,16,4,15.413,5.2051606,0,0,2.76249,0,0,0,119.1, 0.8, -0.3,0,0,1024,1024,1202,1024,89.1,1.6,52,3.867,3.867,3.862,3.866,0,0,4.363,42.3,5.2051606,0,10,Assisted_Takeoff,
471600,2021-07-28 04:36:56,-27.0455966308997,153.107420355666,0,,,5.2051606,0,0,2.74935,16,4,15.413,5.2051606,0,0,2.76249,0,0,0,119.1, 0.8, -0.3,0,0,1024,1024,1204,1024,89.1,1.6,52,3.867,3.867,3.862,3.866,0,0,4.363,42.3,5.2051606,0,10,Assisted_Takeoff,
471700,2021-07-28 04:36:56,-27.0455966271644,153.107420280254,0,,,5.2051606,0,0,2.75117,16,4,15.413,5.2051606,0,0,2.76249,0,0,0,119.1, 0.7, -0.3,0,0,1024,1024,1203,1024,89.1,1.6,52,3.867,3.867,3.862,3.866,0,0,4.363,42.3,5.2051606,0,10,Assisted_Takeoff,
471800,2021-07-28 04:36:56,-27.0455966254853,153.107420123044,0,,,5.2051606,0,0,2.75565,15,4,15.413,5.2051606,0,0,2.76249,0,0,0,119.1, 0.6, -0.3,0,0,1024,1024,1203,1024,89.1,1.6,52,3.867,3.867,3.862,3.866,0,0,4.363,42.3,5.2051606,0,10,Assisted_Takeoff,
471900,2021-07-28 04:36:57,-27.0455966215102,153.107420040822,0,,,5.2051606,0,0,2.7577,15,4,15.413,5.2051606,0,0,2.76249,0,0,0,119.1, 0, -0.2,0,0,1024,1024,1205,1024,89.1,1.6,52,3.867,3.867,3.862,3.866,0,0,4.363,42.3,5.2051606,0,10,Assisted_Takeoff,
472000,2021-07-28 04:36:57,-27.0455966335383,153.107420057598,0,,,5.2051606,0,0,2.75847,15,4,15.413,5.2051606,0,0,2.76249,0,0,0,119, -1.9, -0.1,0,0,1024,1024,1209,1024,89.1,1.6,52,3.867,3.867,3.862,3.866,0,0,4.363,42.3,5.2051606,0,10,Assisted_Takeoff,
472100,2021-07-28 04:36:57,-27.0455966561894,153.10742000177,0,,,5.2051606,0,0,2.76255,15,4,15.413,5.2051606,0,0,2.76255,0,0,-0.1,118.6, -3.1, 0,0,0,1024,1024,1211,1024,89.1,1.6,52,3.867,3.867,3.862,3.866,0,0,4.363,42.3,5.2051606,0,10,Assisted_Takeoff,
472200,2021-07-28 04:36:57,-27.0455967169123,153.107420049133,0,,,5.2051606,0,0,2.76756,15,4,15.351,5.2051606,0,0,2.76756,0,0,-0.3,118.6, -0.9, -0.5,0,0,1024,1024,1212,1024,89.1,1.6,52,3.842,3.839,3.833,3.836,0,0,5.134,42.3,5.2051606,0,6,P-GPS,
472300,2021-07-28 04:36:57,-27.0455967763673,153.1074200419,0,,,5.2051606,0,0,2.77407,15,4,15.351,5.2051606,0,0,2.77407,0,0,-0.3,118.7, 0.4, -0.3,0,0,1024,1024,1213,1024,89,1.6,52,3.842,3.839,3.833,3.836,0,0,5.134,42.3,5.2051606,0,6,P-GPS,
472400,2021-07-28 04:36:57,-27.0455968084078,153.107419899464,0.1,,,5.3051606,0,0,2.78177,16,4,15.351,5.3051606,0.1,0,2.78177,0,0,-0.3,118.8, 0.9, -0.1,0,0,1024,1024,1212,1024,89,1.6,52,3.842,3.839,3.833,3.836,0,0,5.134,42.3,5.3051606,0.1,6,P-GPS,
472500,2021-07-28 04:36:57,-27.0455968495294,153.107419850216,0.1,,,5.3051606,0,0,2.78762,16,4,15.351,5.3051606,0.1,0,2.78762,0,0,-0.2,118.8, 0.9, -0.2,0,0,1024,1024,1213,1024,89,1.6,52,3.842,3.839,3.833,3.836,0,0,5.134,42.3,5.3051606,0.1,6,P-GPS,
472600,2021-07-28 04:36:57,-27.0455968974703,153.107419597625,0.1,,,5.3051606,0.1,0,2.8005,15,4,15.351,5.3051606,0.1,0,2.8005,0,0,-0.2,118.8, 0.8, 0,0,0,1024,1024,1212,1024,89,1.6,52,3.842,3.839,3.833,3.836,0,0,5.134,42.3,5.3051606,0.1,6,P-GPS,
472700,2021-07-28 04:36:57,-27.0455969339314,153.107419498667,0.1,,,5.3051606,0.2,0,2.80745,15,4,15.351,5.3051606,0.1,0,2.80745,0,0,-0.2,118.8, 0.8, -0.3,0,0,1024,1024,1213,1024,89,1.6,52,3.842,3.839,3.833,3.836,0,0,5.134,42.3,5.3051606,0.1,6,P-GPS,
472800,2021-07-28 04:36:57,-27.0455968163923,153.107419368043,0.2,,,5.4051606,0.2,0,2.79923,15,4,15.351,5.4051606,0.2,0,2.80745,0,0,-0.2,118.8, 0.6, -0.8,0,0,1024,1024,1217,1024,89,1.6,52,3.842,3.839,3.833,3.836,0,0,5.134,42.3,5.4051606,0.2,6,P-GPS,
472900,2021-07-28 04:36:58,-27.0455968310932,153.107419229416,0.2,,,5.4051606,0.2,0,2.80525,15,4,15.351,5.4051606,0.2,0,2.80745,0,0,-0.2,118.8, 0.2, -1.4,0,0,1024,1024,1227,1024,89,1.6,52,3.842,3.839,3.833,3.836,0,0,5.134,42.3,5.4051606,0.2,6,P-GPS,
473000,2021-07-28 04:36:58,-27.0455967551211,153.107419032269,0.2,,,5.4051606,0.2,0,2.80376,16,4,15.351,5.4051606,0.2,0,2.80745,0,0,-0.2,118.9, 0, -1.6,0,0,1024,1024,1244,1024,89,1.6,52,3.842,3.839,3.833,3.836,0,0,5.134,42.3,5.4051606,0.2,6,P-GPS,
473100,2021-07-28 04:36:58,-27.0455967361709,153.107418887832,0.2,,,5.4051606,0.2,0,2.80661,16,4,15.351,5.4051606,0.2,0,2.80745,0,0,-0.2,118.9, -0.3, -1.7,0,0,1024,1024,1251,1024,89,1.6,52,3.842,3.839,3.833,3.836,0,0,5.134,42.3,5.4051606,0.2,6,P-GPS,
473200,2021-07-28 04:36:58,-27.0455965167187,153.10741883693,0.2,,,5.4051606,0.3,0,2.78541,16,4,15.304,5.4051606,0.2,0,2.80745,0,0,-0.2,119, -0.5, -1.3,0,0,1024,1024,1261,1024,89,1.6,52,3.828,3.827,3.823,3.827,0,0,7.461,42.3,5.4051606,0.2,6,P-GPS,
473300,2021-07-28 04:36:58,-27.0455964591828,153.107418723197,0.3,,,5.5051606,0.3,0,2.78331,16,4,15.304,5.5051606,0.3,0,2.80745,0,0,-0.2,118.9, -0.6, -1.1,0,0,1024,1024,1266,1024,89,1.6,52,3.828,3.827,3.823,3.827,0,0,7.461,42.3,5.5051606,0.3,6,P-GPS,
473400,2021-07-28 04:36:58,-27.0455964653168,153.107418591265,0.3,,,5.5051606,0.3,0,2.78853,16,4,15.304,5.5051606,0.3,0,2.80745,0,0,-0.3,118.9, -0.4, -0.7,0,0,1024,1024,1266,1024,89,1.6,52,3.828,3.827,3.823,3.827,0,0,7.461,42.3,5.5051606,0.3,6,P-GPS,
473500,2021-07-28 04:36:58,-27.0455964095285,153.107418502117,0.3,,,5.5051606,0.3,0,2.78586,16,4,15.304,5.5051606,0.3,0,2.80745,0,0,-0.3,118.8, -0.2, 0,0,0,1024,1024,1268,1024,89,1.6,52,3.828,3.827,3.823,3.827,0,0,7.461,42.3,5.5051606,0.3,6,P-GPS,
473600,2021-07-28 04:36:58,-27.0455964955069,153.107418513314,0.4,,,5.6051606,0.4,0,2.79441,16,4,15.304,5.6051606,0.4,0,2.80745,0,0,-0.4,118.8, 0, -0.2,0,0,1024,1024,1268,1024,89,1.6,52,3.828,3.827,3.823,3.827,0,0,7.461,42.3,5.6051606,0.4,6,P-GPS,
473700,2021-07-28 04:36:58,-27.0455964715535,153.107418438672,0.4,,,5.6051606,0.4,0,2.79455,16,4,15.304,5.6051606,0.4,0,2.80745,0,0,-0.4,118.9, 0.3, -0.5,0,0,1024,1024,1268,1024,89,1.6,52,3.828,3.827,3.823,3.827,0,0,7.461,42.3,5.6051606,0.4,6,P-GPS,
473800,2021-07-28 04:36:58,-27.0455964371142,153.107418488766,0.5,,,5.7051606,0.5,0,2.7892,16,5,15.304,5.7051606,0.5,0,2.80745,0,0,-0.4,118.9, 0.5, -0.6,0,0,1024,1024,1269,1024,89,1.6,52,3.828,3.827,3.823,3.827,0,0,7.461,42.3,5.7051606,0.5,6,P-GPS,
473900,2021-07-28 04:36:59,-27.0455964146344,153.107418419819,0.5,,,5.7051606,0.5,0,2.78931,16,5,15.304,5.7051606,0.5,0,2.80745,0,0,-0.4,118.8, 0.7, -0.7,0,0,1024,1024,1279,1024,89,1.6,52,3.828,3.827,3.823,3.827,0,0,7.461,42.3,5.7051606,0.5,6,P-GPS,
474000,2021-07-28 04:36:59,-27.0455964939305,153.107418545402,0.5,,,5.7051606,0.5,0,2.79312,15,5,15.304,5.7051606,0.5,0,2.80745,0,0,-0.4,118.8, 0.8, -0.9,0,0,1024,1024,1282,1024,89,1.6,52,3.828,3.827,3.823,3.827,0,0,7.461,42.3,5.7051606,0.5,6,P-GPS,
474100,2021-07-28 04:36:59,-27.0455964850209,153.107418484727,0.6,,,5.8051606,0.6,0,2.79432,15,5,15.304,5.8051606,0.6,0,2.80745,0,0,-0.4,118.7, 1, -1,0,0,1024,1024,1282,1024,89,1.6,52,3.828,3.827,3.823,3.827,0,0,7.461,42.3,5.8051606,0.6,6,P-GPS,
474200,2021-07-28 04:36:59,-27.0455966704792,153.107418264263,0.6,,,5.8051606,0.6,0,2.8214,15,5,15.304,5.8051606,0.6,0,2.8214,0,0,-0.4,118.7, 1, -1.1,0,0,1024,1024,1282,1024,89,1.6,52,3.828,3.827,3.823,3.827,0,0,7.461,42.3,5.8051606,0.6,6,P-GPS,
474300,2021-07-28 04:36:59,-27.0455966850088,153.107418169806,0.7,,,5.9051606,0.7,0,2.82629,15,5,15.292,5.9051606,0.7,0,2.82629,0,0,-0.4,118.7, 1.1, -1.3,0,0,1024,1024,1282,1024,89,1.6,52,3.825,3.823,3.82,3.823,0,0,7.929,42.4,5.9051606,0.7,6,P-GPS,
474400,2021-07-28 04:36:59,-27.0455966836038,153.107418096357,0.7,,,5.9051606,0.7,0,2.82879,16,5,15.292,5.9051606,0.7,0,2.82879,0,0,-0.5,118.7, 1, -1.5,0,0,1024,1024,1284,1024,89,1.6,52,3.825,3.823,3.82,3.823,0,0,7.929,42.4,5.9051606,0.7,6,P-GPS,
474500,2021-07-28 04:36:59,-27.0455966906973,153.107417973736,0.8,,,6.0051606,0.8,0,2.83398,16,5,15.292,6.0051606,0.8,0,2.83398,0,0,-0.5,118.7, 0.6, -2,0,0,1024,1024,1293,1024,89,1.6,52,3.825,3.823,3.82,3.823,0,0,7.929,42.4,6.0051606,0.8,6,P-GPS,
474600,2021-07-28 04:36:59,-27.0455969624424,153.107418109592,0.8,,,6.0051606,0.9,0,2.85721,17,5,15.292,6.0051606,0.8,0,2.85721,0,0,-0.5,118.8, 0.3, -2.1,0,0,1024,1024,1310,1024,89,1.6,52,3.825,3.823,3.82,3.823,0,0,7.929,42.4,6.0051606,0.8,6,P-GPS,
474700,2021-07-28 04:36:59,-27.0455969780343,153.107418022407,0.9,,,6.1051606,0.9,0,2.86195,17,5,15.292,6.1051606,0.9,0,2.86195,0,0,-0.5,118.8, 0.4, -2,0,0,1024,1024,1310,1024,89,1.6,52,3.825,3.823,3.82,3.823,0,0,7.929,42.4,6.1051606,0.9,6,P-GPS,
474800,2021-07-28 04:36:59,-27.0455970360158,153.107418074887,0.9,,,6.1051606,1,0,2.86608,16,5,15.292,6.1051606,0.9,0,2.86608,0,0,-0.5,118.8, 0.6, -1.8,0,0,1024,1024,1312,1024,89,1.6,52,3.825,3.823,3.82,3.823,0,0,7.929,42.4,6.1051606,0.9,6,P-GPS,
474900,2021-07-28 04:37:00,-27.0455970391342,153.107418024639,1,,,6.2051606,1,0,2.8682,16,5,15.292,6.2051606,1,0,2.8682,0,0,-0.6,118.8, 0.7, -1.5,0,0,1024,1024,1312,1024,89,1.6,52,3.825,3.823,3.82,3.823,0,0,7.929,42.4,6.2051606,1,6,P-GPS,
475000,2021-07-28 04:37:00,-27.0455968071056,153.10741808139,1.1,,,6.3051606,1.1,0,2.84212,16,5,15.292,6.3051606,1.1,0,2.8682,0,0,-0.6,118.8, 0.8, -1.3,0,0,1024,1024,1313,1024,89,1.6,52,3.825,3.823,3.82,3.823,0,0,7.929,42.4,6.3051606,1.1,6,P-GPS,
475100,2021-07-28 04:37:00,-27.0455967867162,153.107418038297,1.1,,,6.3051606,1.2,0,2.84157,16,5,15.292,6.3051606,1.1,0,2.8682,0,0,-0.6,118.7, 0.8, -1.1,0,0,1024,1024,1315,1024,89,1.6,52,3.825,3.823,3.82,3.823,0,0,7.929,42.4,6.3051606,1.1,6,P-GPS,
475200,2021-07-28 04:37:00,-27.0455967944607,153.107418292812,1.2,,,6.4051606,1.2,0,2.83325,16,5,15.292,6.4051606,1.2,0,2.8682,0,0,-0.6,118.7, 0.8, -1,0,0,1024,1024,1328,1024,89,1.6,52,3.825,3.823,3.82,3.823,0,0,7.929,42.4,6.4051606,1.2,6,P-GPS,
475300,2021-07-28 04:37:00,-27.0455967880184,153.107418276921,1.2,,,6.4051606,1.3,0,2.83315,16,5,15.282,6.4051606,1.2,0,2.8682,0,0,-0.6,118.7, 0.8, -1,0,0,1024,1024,1346,1024,89,1.6,52,3.822,3.82,3.816,3.82,0,0,7.753,42.4,6.4051606,1.2,6,P-GPS,
475400,2021-07-28 04:37:00,-27.0455968454173,153.107418600884,1.3,,,6.5051606,1.3,0,2.82779,15,5,15.282,6.5051606,1.3,0,2.8682,0,0,-0.6,118.7, 0.9, -1.4,0,0,1024,1024,1363,1024,89,1.6,52,3.822,3.82,3.816,3.82,0,0,7.753,42.4,6.5051606,1.3,6,P-GPS,
475500,2021-07-28 04:37:00,-27.0455968588846,153.107418606809,1.4,,,6.6051606,1.4,0,2.82899,15,5,15.282,6.6051606,1.4,0,2.8682,0,0,-0.7,118.7, 0.9, -1.6,0,0,1024,1024,1369,1024,89,1.6,52,3.822,3.82,3.816,3.82,0,0,7.753,42.4,6.6051606,1.4,6,P-GPS,
475600,2021-07-28 04:37:00,-27.0455969006915,153.107418413201,1.5,,,6.7051606,1.5,0,2.84006,16,5,15.282,6.7051606,1.5,0,2.8682,0,0,-0.8,118.7, 0.9, -1.6,0,0,1024,1024,1372,1024,89,1.6,52,3.822,3.82,3.816,3.82,0,0,7.753,42.4,6.7051606,1.5,6,P-GPS,
475700,2021-07-28 04:37:00,-27.0455969190249,153.107418391886,1.5,,,6.7051606,1.6,0,2.84271,16,5,15.282,6.7051606,1.5,0,2.8682,0,0,-0.8,118.7, 0.9, -1.8,0,0,1024,1024,1374,1024,89,1.6,52,3.822,3.82,3.816,3.82,0,0,7.753,42.4,6.7051606,1.5,6,P-GPS,
475800,2021-07-28 04:37:00,-27.0455969039812,153.107418382921,1.6,,,6.8051606,1.7,0,2.84146,18,5,15.282,6.8051606,1.6,0,2.8682,0,0,-0.9,118.7, 0.9, -1.8,0,0,1024,1024,1375,1024,89,1.6,52,3.822,3.82,3.816,3.82,0,0,7.753,42.4,6.8051606,1.6,6,P-GPS,
475900,2021-07-28 04:37:01,-27.0455969133364,153.107418356411,1.7,,,6.9051606,1.8,0,2.84336,18,5,15.282,6.9051606,1.7,0,2.8682,0,0,-0.9,118.7, 0.8, -2.1,0,0,1024,1024,1376,1024,89,1.6,52,3.822,3.82,3.816,3.82,0,0,7.753,42.4,6.9051606,1.7,6,P-GPS,
476000,2021-07-28 04:37:01,-27.0455968687195,153.107418228173,1.8,,,7.0051606,1.9,0,2.84326,18,5,15.282,7.0051606,1.8,0,2.8682,0,0,-0.9,118.7, 0.5, -2.2,0,0,1024,1024,1382,1024,89,1.6,52,3.822,3.82,3.816,3.82,0,0,7.753,42.4,7.0051606,1.8,6,P-GPS,
476100,2021-07-28 04:37:01,-27.045596855355,153.107418200086,1.9,,,7.1051606,2,0,2.84287,18,5,15.282,7.1051606,1.9,0,2.8682,0,0,-0.9,118.7, 0.3, -1.9,0,0,1024,1024,1390,1024,89,1.6,52,3.822,3.82,3.816,3.82,0,0,7.753,42.4,7.1051606,1.9,6,P-GPS,
476200,2021-07-28 04:37:01,-27.0455969590841,153.107418124636,2,,,7.2051606,2.1,0,2.85632,16,5,15.282,7.2051606,2,0,2.8682,0,0,-1,118.7, 0.2, -1.8,0,0,1024,1024,1392,1024,89,1.6,52,3.822,3.82,3.816,3.82,0,0,7.753,42.4,7.2051606,2,6,P-GPS,
476300,2021-07-28 04:37:01,-27.0455969473645,153.107418108015,2.1,,,7.3051606,2.2,0,2.8557,16,5,15.282,7.3051606,2.1,0,2.8682,0,0,-1,118.7, 0.2, -1.9,0,0,1024,1024,1393,1024,89,1.6,52,3.822,3.82,3.816,3.82,0,0,7.753,42.4,7.3051606,2.1,6,P-GPS,
476400,2021-07-28 04:37:01,-27.0455969140217,153.107418214437,2.2,,,7.4051606,2.3,0,2.84845,16,5,15.282,7.4051606,2.2,0,2.8682,0,0,-1.1,118.7, 0.5, -1.8,0,0,1024,1024,1398,1024,89,1.6,52,3.816,3.813,3.809,3.813,0,0,7.753,42.4,7.4051606,2.2,6,P-GPS,
476500,2021-07-28 04:37:01,-27.0455968919532,153.107418229751,2.3,,,7.5051606,2.4,0,2.84561,16,5,15.282,7.5051606,2.3,0,2.8682,0,0,-1.1,118.7, 0.6, -1.4,0,0,1024,1024,1417,1024,89,1.6,52,3.816,3.813,3.809,3.813,0,0,7.753,42.4,7.5051606,2.3,6,P-GPS,
476600,2021-07-28 04:37:01,-27.045596595912,153.107418293543,2.4,,,7.6051606,2.5,0,2.81262,16,5,15.282,7.6051606,2.4,0,2.8682,0,0,-1.1,118.7, 0.7, -1.2,0,0,1024,1024,1430,1024,89,1.6,52,3.816,3.813,3.809,3.813,0,0,7.753,42.4,7.6051606,2.4,6,P-GPS,
476700,2021-07-28 04:37:01,-27.0455965498901,153.107418311665,2.6,,,7.8051606,2.6,0,2.8072,16,5,15.282,7.8051606,2.6,0,2.8682,0,0,-1.1,118.7, 0.5, -1.1,0,0,1024,1024,1431,1024,89,1.6,52,3.816,3.813,3.809,3.813,0,0,7.753,42.4,7.8051606,2.6,6,P-GPS,
476800,2021-07-28 04:37:01,-27.0455966246286,153.107418300276,2.7,,,7.9051606,2.7,0,2.81536,15,5,15.282,7.9051606,2.7,0,2.8682,0,0,-1.2,118.7, 0.3, -1.1,0,0,1024,1024,1431,1024,89,1.6,52,3.816,3.813,3.809,3.813,0,0,7.753,42.4,7.9051606,2.7,6,P-GPS,
476900,2021-07-28 04:37:02,-27.0455965903606,153.107418315858,2.8,,,8.0051606,2.9,0,2.81125,15,5,15.282,8.0051606,2.8,0,2.8682,0,0,-1.3,118.8, 0.3, -1.2,0,0,1024,1024,1430,1024,89,1.6,52,3.816,3.813,3.809,3.813,0,0,7.753,42.4,8.0051606,2.8,6,P-GPS,
477000,2021-07-28 04:37:02,-27.0455963647745,153.10741827746,3,,,8.2051606,3,0,2.78924,16,5,15.282,8.2051606,3,0,2.8682,0,0,-1.3,118.8, 0.4, -1.3,0,0,1024,1024,1433,1024,89,1.6,52,3.816,3.813,3.809,3.813,0,0,7.753,42.4,8.2051606,3,6,P-GPS,
477100,2021-07-28 04:37:02,-27.0455963135781,153.107418293504,3.1,,,8.3051606,3.1,0,2.78335,16,5,15.282,8.3051606,3.1,0,2.8682,0,0,-1.4,118.8, 0.5, -1.1,0,0,1024,1024,1438,1024,89,1.6,52,3.816,3.813,3.809,3.813,0,0,7.753,42.4,8.3051606,3.1,6,P-GPS,
477200,2021-07-28 04:37:02,-27.0455967170836,153.107418274728,3.2,,,8.4051606,3.3,0,2.82586,18,5,15.282,8.4051606,3.2,0,2.8682,0,0,-1.4,118.8, 0.4, -1,0,0,1024,1024,1445,1024,89,1.6,52,3.816,3.813,3.809,3.813,0,0,7.753,42.4,8.4051606,3.2,6,P-GPS,
477300,2021-07-28 04:37:02,-27.0455967181117,153.107418287194,3.4,,,8.6051606,3.4,0,2.82552,18,5,15.282,8.6051606,3.4,0,2.8682,0,0,-1.4,118.8, 0.4, -1,0,0,1024,1024,1472,1024,89,1.6,52,3.816,3.813,3.809,3.813,0,0,7.753,42.4,8.6051606,3.4,6,P-GPS,
477400,2021-07-28 04:37:02,-27.045596923514,153.107417968657,3.5,,,8.7051606,3.6,0,2.85825,17,5,15.282,8.7051606,3.5,0,2.8682,0,0,-1.4,118.8, 0.4, -1.5,0,0,1024,1024,1476,1024,89,1.6,52,3.816,3.813,3.809,3.813,0,0,7.753,42.4,8.7051606,3.5,6,P-GPS,
477500,2021-07-28 04:37:02,-27.0455969624767,153.107417957038,3.7,,,8.9051606,3.7,0,2.8627,17,5,15.244,8.9051606,3.7,0,2.8682,0,0,-1.5,118.8, 0.4, -1.9,0,0,1024,1024,1476,1024,89,1.6,52,3.814,3.811,3.807,3.812,0,0,8.455,42.4,8.9051606,3.7,6,P-GPS,
477600,2021-07-28 04:37:02,-27.0455968242396,153.107418149299,3.8,,,9.0051606,3.9,0,2.84145,16,5,15.244,9.0051606,3.8,0,2.8682,0,0,-1.6,118.9, 0.5, -2.2,0,0,1024,1024,1476,1024,89,1.6,52,3.814,3.811,3.807,3.812,0,0,8.455,42.4,9.0051606,3.8,6,P-GPS,
477700,2021-07-28 04:37:02,-27.0455968379126,153.107418179309,4,,,9.2051606,4,0,2.8418,16,5,15.244,9.2051606,4,0,2.8682,0,0,-1.7,118.9, 0.8, -2.3,0,0,1024,1024,1484,1024,89,1.6,52,3.814,3.811,3.807,3.812,0,0,8.455,42.4,9.2051606,4,6,P-GPS,
477800,2021-07-28 04:37:02,-27.0455969380779,153.107418072387,4.2,,,9.4051606,4.2,0,2.85601,16,5,15.244,9.4051606,4.2,0,2.8682,0,0,-1.7,118.9, 1, -1.9,0,0,1024,1024,1491,1024,89,1.6,52,3.814,3.811,3.807,3.812,0,0,8.455,42.4,9.4051606,4.2,6,P-GPS,
477900,2021-07-28 04:37:03,-27.0455969298878,153.107418114863,4.4,,,9.6051606,4.4,0,2.85364,16,5,15.244,9.6051606,4.4,0,2.8682,0,0,-1.7,118.9, 1.1, -1.4,0,0,1024,1024,1497,1024,89,1.6,52,3.814,3.811,3.807,3.812,0,0,8.455,42.4,9.6051606,4.4,6,P-GPS,
478000,2021-07-28 04:37:03,-27.0455966714729,153.107418149145,4.5,,,9.7051606,4.6,0,2.82563,16,5,15.244,9.7051606,4.5,0,2.8682,0,0,-1.8,118.9, 1, -1,0,0,1024,1024,1498,1024,89,1.6,52,3.814,3.811,3.807,3.812,0,0,8.455,42.4,9.7051606,4.5,6,P-GPS,
478100,2021-07-28 04:37:03,-27.0455966261364,153.107418192699,4.7,,,9.9051606,4.7,0,2.81936,16,5,15.244,9.9051606,4.7,0,2.8682,0,0,-1.8,118.8, 0.9, -0.6,0,0,1024,1024,1499,1024,89,1.6,52,3.814,3.811,3.807,3.812,0,0,8.455,42.4,9.9051606,4.7,6,P-GPS,
478200,2021-07-28 04:37:03,-27.0455963178616,153.107418593265,4.9,,,10.1051606,4.9,0,2.77313,16,5,15.244,10.1051606,4.9,0,2.8682,0,0,-1.9,118.8, 1.1, -0.5,0,0,1024,1024,1499,1024,89,1.6,52,3.814,3.811,3.807,3.812,0,0,8.455,42.4,10.1051606,4.9,6,P-GPS,
478300,2021-07-28 04:37:03,-27.0455962485375,153.107418658827,5.1,,,10.3051606,5.1,0,2.76362,16,5,15.244,10.3051606,5.1,0,2.8682,0,0,-1.9,118.7, 1.1, -0.3,0,0,1024,1024,1500,1024,89,1.6,52,3.814,3.811,3.807,3.812,0,0,8.455,42.4,10.3051606,5.1,6,P-GPS,
478400,2021-07-28 04:37:03,-27.0455962123162,153.107418788989,5.3,,,10.5051606,5.3,0,2.75531,16,5,15.244,10.5051606,5.3,0,2.8682,0,0,-1.9,118.7, 1, -0.1,0,0,1024,1024,1500,1024,89,1.6,52,3.814,3.811,3.807,3.812,0,0,8.455,42.4,10.5051606,5.3,6,P-GPS,
478500,2021-07-28 04:37:03,-27.0455961588925,153.107418833698,5.5,,,10.7051606,5.5,0,2.7482,16,5,15.238,10.7051606,5.5,0,2.8682,0,0,-1.9,118.7, 0.8, -0.3,0,0,1024,1024,1500,1024,89,1.6,52,3.812,3.809,3.806,3.81,0,0,8.511,42.4,10.7051606,5.5,6,P-GPS,
478600,2021-07-28 04:37:03,-27.0455963238585,153.107418479879,5.7,,,10.9051606,5.7,0,2.77775,17,5,15.238,10.9051606,5.7,0,2.8682,0,0,-2,118.8, 0.7, -0.8,0,0,1024,1024,1500,1024,89,1.6,52,3.812,3.809,3.806,3.81,0,0,8.511,42.4,10.9051606,5.7,6,P-GPS,
478700,2021-07-28 04:37:03,-27.0455963191638,153.107418476685,5.9,,,11.1051606,5.9,0,2.77738,17,5,15.238,11.1051606,5.9,0,2.8682,0,0,-2,118.7, 0.5, -1,0,0,1024,1024,1500,1024,89,1.6,52,3.812,3.809,3.806,3.81,0,0,8.511,42.4,11.1051606,5.9,6,P-GPS,
478800,2021-07-28 04:37:03,-27.045596319438,153.107418691493,6.1,,,11.3051606,6.1,0,2.76985,17,5,15.238,11.3051606,6.1,0,2.8682,0,0,-2,118.7, 0.6, -1.3,0,0,1024,1024,1500,1024,89,1.6,52,3.812,3.809,3.806,3.81,0,0,8.511,42.4,11.3051606,6.1,6,P-GPS,
478900,2021-07-28 04:37:04,-27.0455963432885,153.107418723043,6.3,,,11.5051606,6.3,0,2.77124,17,5,15.238,11.5051606,6.3,0,2.8682,0,0,-2,118.7, 0.9, -1.5,0,0,1024,1024,1500,1024,89,1.6,52,3.812,3.809,3.806,3.81,0,0,8.511,42.4,11.5051606,6.3,6,P-GPS,
479000,2021-07-28 04:37:04,-27.0455965826504,153.107418412893,6.5,,,11.7051606,6.5,0,2.807,16,5,15.238,11.7051606,6.5,0,2.8682,0,0,-2,118.7, 1.3, -1.7,0,0,1024,1024,1499,1024,89,1.6,52,3.812,3.809,3.806,3.81,0,0,8.511,42.4,11.7051606,6.5,6,P-GPS,
479100,2021-07-28 04:37:04,-27.045596640529,153.107418428399,6.7,,,11.9051606,6.7,0,2.81247,16,5,15.238,11.9051606,6.7,0,2.8682,0,0,-2,118.7, 1.7, -1.5,0,0,1024,1024,1500,1024,89,1.6,52,3.812,3.809,3.806,3.81,0,0,8.511,42.4,11.9051606,6.7,6,P-GPS,
479200,2021-07-28 04:37:04,-27.0455966249713,153.107418620506,6.9,,,12.1051606,6.9,0,2.80414,16,5,15.238,12.1051606,6.9,0,2.8682,0,0,-1.9,118.7, 2, -1.2,0,0,1024,1024,1500,1024,89,1.6,52,3.812,3.809,3.806,3.81,0,0,8.511,42.4,12.1051606,6.9,6,P-GPS,
479300,2021-07-28 04:37:04,-27.0455966871334,153.107418656096,7.1,,,12.3051606,7.1,0,2.80939,16,5,15.238,12.3051606,7.1,0,2.8682,0,0,-1.9,118.7, 2.3, -1.4,0,0,1024,1024,1500,1024,89,1.6,52,3.812,3.809,3.806,3.81,0,0,8.511,42.4,12.3051606,7.1,6,P-GPS,
479400,2021-07-28 04:37:04,-27.0455966142797,153.107418465143,7.3,,,12.5051606,7.3,0,2.80845,17,5,15.238,12.5051606,7.3,0,2.8682,0,0,-1.9,118.7, 2.4, -1.9,0,0,1024,1024,1500,1024,89,1.6,52,3.812,3.809,3.806,3.81,0,0,8.511,42.4,12.5051606,7.3,6,P-GPS,
479500,2021-07-28 04:37:04,-27.0455966638997,153.107418458025,7.5,,,12.7051606,7.4,0,2.81386,17,5,15.238,12.7051606,7.5,0,2.8682,0,0,-1.9,118.7, 2.3, -2.3,0,0,1024,1024,1500,1024,89,1.6,52,3.812,3.809,3.806,3.81,0,0,8.511,42.4,12.7051606,7.5,6,P-GPS,
479600,2021-07-28 04:37:04,-27.045596712526,153.107418392386,7.7,,,12.9051606,7.6,0,2.82122,17,5,15.235,12.9051606,7.7,0,2.8682,0,0,-1.9,118.6, 1.8, -2.1,0,0,1024,1024,1500,1024,89,1.6,52,3.812,3.809,3.805,3.808,0,0,8.123,42.4,12.9051606,7.7,6,P-GPS,
479700,2021-07-28 04:37:04,-27.0455967365479,153.107418367646,7.9,,,13.1051606,7.8,0,2.82459,17,5,15.235,13.1051606,7.9,0,2.8682,0,0,-1.9,118.7, 1.7, -2.2,0,0,1024,1024,1500,1024,89,1.6,52,3.812,3.809,3.805,3.808,0,0,8.123,42.4,13.1051606,7.9,6,P-GPS,
479800,2021-07-28 04:37:04,-27.0455965932734,153.107418490883,8.1,,,13.3051606,8,0,2.80536,17,5,15.235,13.3051606,8.1,0,2.8682,0,0,-1.9,118.8, 1.7, -2.1,0,0,1024,1024,1500,1024,89,1.6,52,3.812,3.809,3.805,3.808,0,0,8.123,42.4,13.3051606,8.1,6,P-GPS,
479900,2021-07-28 04:37:05,-27.0455965813824,153.107418483264,8.3,,,13.5051606,8.1,0,2.80439,17,5,15.235,13.5051606,8.3,0,2.8682,0,0,-1.9,118.7, 1.6, -1.7,0,0,1024,1024,1500,1024,89,1.6,52,3.812,3.809,3.805,3.808,0,0,8.123,42.4,13.5051606,8.3,6,P-GPS,
480000,2021-07-28 04:37:05,-27.0455964975629,153.107417901017,8.5,,,13.7051606,8.3,0,2.81671,18,5,15.235,13.7051606,8.5,0,2.8682,0,0,-1.9,118.7, 1.6, -1.1,0,0,1024,1024,1500,1024,89,1.6,52,3.812,3.809,3.805,3.808,0,0,8.123,42.4,13.7051606,8.5,6,P-GPS,
480100,2021-07-28 04:37:05,-27.0455964812856,153.107417832916,8.7,,,13.9051606,8.5,0,2.81756,18,5,15.235,13.9051606,8.7,0,2.8682,0,0,-1.9,118.7, 1.6, -1.4,0,0,1024,1024,1500,1024,89,1.6,52,3.812,3.809,3.805,3.808,0,0,8.123,42.4,13.9051606,8.7,6,P-GPS,
480200,2021-07-28 04:37:05,-27.0455961925779,153.10741778436,8.9,,,14.1051606,8.7,0,2.78967,18,5,15.235,14.1051606,8.9,0,2.8682,0,0,-1.9,118.7, 1.6, -1.4,0,0,1024,1024,1500,1024,89,1.6,52,3.812,3.809,3.805,3.808,0,0,8.123,42.4,14.1051606,8.9,6,P-GPS,
480300,2021-07-28 04:37:05,-27.0455961640327,153.107417702831,9.1,,,14.3051606,8.9,0,2.78983,18,5,15.235,14.3051606,9.1,0,2.8682,0,0,-1.9,118.7, 1.5, -1.6,0,0,1024,1024,1500,1024,89,1.6,52,3.812,3.809,3.805,3.808,0,0,8.123,42.4,14.3051606,9.1,6,P-GPS,
480400,2021-07-28 04:37:05,-27.0455959733999,153.107417641771,9.3,,,14.5051606,9,0,2.77261,18,5,15.235,14.5051606,9.3,0,2.8682,0,0,-1.9,118.7, 1.6, -2.1,0,0,1024,1024,1500,1024,89,1.6,52,3.812,3.809,3.805,3.808,0,0,8.123,42.4,14.5051606,9.3,6,P-GPS,
480500,2021-07-28 04:37:05,-27.0455959274808,153.107417562473,9.5,,,14.7051606,9.2,0,2.77098,18,5,15.235,14.7051606,9.5,0,2.8682,0,0,-1.9,118.8, 1.5, -1.8,0,0,1024,1024,1500,1024,89,1.6,52,3.812,3.809,3.805,3.808,0,0,8.123,42.4,14.7051606,9.5,6,P-GPS,
480600,2021-07-28 04:37:05,-27.0455960135277,153.107417693905,9.7,,,14.9051606,9.3,0,2.77472,18,5,15.223,14.9051606,9.7,0,2.8682,0,0,-1.9,118.8, 1.4, -1.4,0,0,1024,1024,1500,1024,89,1.6,52,3.808,3.804,3.801,3.806,0,0,8.392,42.4,14.9051606,9.7,6,P-GPS,
480700,2021-07-28 04:37:05,-27.0455959842971,153.107417643772,9.9,,,15.1051606,9.5,0,2.77365,18,5,15.223,15.1051606,9.9,0,2.8682,0,0,-2,118.7, 1.7, -1.2,0,0,1024,1024,1500,1024,89,1.6,52,3.808,3.804,3.801,3.806,0,0,8.392,42.4,15.1051606,9.9,6,P-GPS,
480800,2021-07-28 04:37:05,-27.0455962184845,153.107417801251,10.1,,,15.3051606,9.7,0,2.79169,18,5,15.223,15.3051606,10.1,0,2.8682,0,0,-2,118.7, 2.2, -1.5,0,0,1024,1024,1500,1024,89,1.6,52,3.808,3.804,3.801,3.806,0,0,8.392,42.4,15.3051606,10.1,6,P-GPS,
480900,2021-07-28 04:37:06,-27.045596234796,153.107417764507,10.3,,,15.5051606,9.9,0,2.79476,18,5,15.223,15.5051606,10.3,0,2.8682,0,0,-2,118.7, 2.1, -1.8,0,0,1024,1024,1501,1024,89,1.6,52,3.808,3.804,3.801,3.806,0,0,8.392,42.4,15.5051606,10.3,6,P-GPS,
481000,2021-07-28 04:37:06,-27.0455965898466,153.107417690173,10.5,,,15.7051606,10,0,2.83408,18,5,15.223,15.7051606,10.5,0,2.8682,0,0,-2,118.7, 2.4, -1.8,0,0,1024,1024,1501,1024,89,1.6,52,3.808,3.804,3.801,3.806,0,0,8.392,42.4,15.7051606,10.5,6,P-GPS,
481100,2021-07-28 04:37:06,-27.045596627747,153.107417650351,10.7,,,15.9051606,10.2,0,2.83947,18,5,15.223,15.9051606,10.7,0,2.8682,0,0,-1.9,118.8, 2.6, -1.7,0,0,1024,1024,1502,1024,89,1.6,52,3.808,3.804,3.801,3.806,0,0,8.392,42.4,15.9051606,10.7,6,P-GPS,
481200,2021-07-28 04:37:06,-27.0455967031708,153.107417713143,10.9,,,16.1051606,10.4,0,2.84489,18,5,15.223,16.1051606,10.9,0,2.8682,0,0,-1.9,118.9, 2.4, -1.4,0,0,1024,1024,1502,1024,89,1.6,52,3.808,3.804,3.801,3.806,0,0,8.392,42.4,16.1051606,10.9,6,P-GPS,
481300,2021-07-28 04:37:06,-27.0455967332581,153.107417668396,11.1,,,16.3051606,10.6,0,2.84966,18,5,15.223,16.3051606,11.1,0,2.8682,0,0,-1.9,118.9, 2.2, -1.3,0,0,1024,1024,1502,1024,89,1.6,52,3.808,3.804,3.801,3.806,0,0,8.392,42.4,16.3051606,11.1,6,P-GPS,
481400,2021-07-28 04:37:06,-27.0455967601242,153.107418009479,11.3,,,16.5051606,10.7,0,2.83986,18,5,15.223,16.5051606,11.3,0,2.8682,0,0,-1.9,118.8, 1.9, -1,0,0,1024,1024,1502,1024,89,1.6,52,3.808,3.804,3.801,3.806,0,0,8.392,42.4,16.5051606,11.3,6,P-GPS,
481500,2021-07-28 04:37:06,-27.0455967764358,153.107417995359,11.5,,,16.7051606,10.9,0,2.84206,18,5,15.223,16.7051606,11.5,0,2.8682,0,0,-1.9,118.9, 1.5, -0.5,0,0,1024,1024,1502,1024,89,1.6,52,3.808,3.804,3.801,3.806,0,0,8.392,42.4,16.7051606,11.5,6,P-GPS,
481600,2021-07-28 04:37:06,-27.0455966893266,153.107417997283,11.7,,,16.9051606,11.1,0,2.83298,18,5,15.223,16.9051606,11.7,0,2.8682,0,0,-2,118.8, 1.6, -0.3,0,0,1024,1024,1502,1024,89,1.6,52,3.808,3.804,3.801,3.806,0,0,8.392,42.4,16.9051606,11.7,6,P-GPS,
481700,2021-07-28 04:37:06,-27.0455967159528,153.107417983124,11.9,,,17.1051606,11.1,0,2.83625,18,5,15.213,17.1051606,11.9,0,2.8682,0,0,-2,118.7, 1.8, -0.6,0,0,1024,1024,1502,1024,89,1.6,52,3.806,3.802,3.8,3.805,0,0,8.398,42.5,17.1051606,11.9,6,P-GPS,
481800,2021-07-28 04:37:06,-27.0455968629967,153.10741829385,12.1,,,17.3051606,11.1,0,2.84033,18,5,15.213,17.3051606,12.1,0,2.8682,0,0,-2,118.6, 1.8, -0.3,0,0,1024,1024,1502,1024,89,1.6,52,3.806,3.802,3.8,3.805,0,0,8.398,42.5,17.3051606,12.1,6,P-GPS,
481900,2021-07-28 04:37:07,-27.0455969165576,153.107418293812,12.3,,,17.5051606,11.1,0,2.8459,18,5,15.213,17.5051606,12.3,0,2.8682,0,0,-2,118.6, 1.6, -0.3,0,0,1024,1024,1502,1024,89,1.6,52,3.806,3.802,3.8,3.805,0,0,8.398,42.5,17.5051606,12.3,6,P-GPS,
482000,2021-07-28 04:37:07,-27.0455970567479,153.107418387615,12.5,,,17.7051606,11.1,0,2.85719,18,5,15.213,17.7051606,12.5,0,2.8682,0,0,-2,118.7, 1.5, -0.7,0,0,1024,1024,1502,1024,89,1.6,52,3.806,3.802,3.8,3.805,0,0,8.398,42.5,17.7051606,12.5,6,P-GPS,
482100,2021-07-28 04:37:07,-27.0455971314178,153.107418380381,12.7,,,17.9051606,11.1,0,2.86522,18,5,15.213,17.9051606,12.7,0,2.8682,0,0,-2,118.8, 1.2, -1.3,0,0,1024,1024,1502,1024,89,1.6,52,3.806,3.802,3.8,3.805,0,0,8.398,42.5,17.9051606,12.7,6,P-GPS,
482200,2021-07-28 04:37:07,-27.045597043589,153.107418475685,12.9,,,18.1051606,11.1,0,2.85277,18,5,15.213,18.1051606,12.9,0,2.8682,0,0,-1.9,118.8, 1.2, -1.2,0,0,1024,1024,1502,1024,89,1.6,52,3.806,3.802,3.8,3.805,0,0,8.398,42.5,18.1051606,12.9,6,P-GPS,
482300,2021-07-28 04:37:07,-27.0455970858757,153.107418497423,13.1,,,18.3051606,11.1,0,2.85643,18,5,15.213,18.3051606,13.1,0,2.8682,0,0,-1.9,118.7, 0.8, -0.8,0,0,1024,1024,1502,1024,89,1.6,52,3.806,3.802,3.8,3.805,0,0,8.398,42.5,18.3051606,13.1,6,P-GPS,
482400,2021-07-28 04:37:07,-27.0455968029592,153.107418358912,13.3,,,18.5051606,11.1,0,2.8318,18,5,15.213,18.5051606,13.3,0,2.8682,0,0,-1.9,118.7, 0.7, -0.6,0,0,1024,1024,1502,1024,89,1.6,52,3.806,3.802,3.8,3.805,0,0,8.398,42.5,18.5051606,13.3,6,P-GPS,
482500,2021-07-28 04:37:07,-27.0455968159468,153.107418384729,13.5,,,18.7051606,11.1,0,2.83224,18,5,15.213,18.7051606,13.5,0,2.8682,0,0,-2,118.7, 0.7, -0.6,0,0,1024,1024,1502,1024,89,1.6,52,3.806,3.802,3.8,3.805,0,0,8.398,42.5,18.7051606,13.5,6,P-GPS,
482600,2021-07-28 04:37:07,-27.0455967573828,153.107418277229,13.7,,,18.9051606,11.1,0,2.82995,18,5,15.213,18.9051606,13.7,0,2.8682,0,0,-2,118.7, 0.6, -0.7,0,0,1024,1024,1502,1024,89,1.6,52,3.806,3.802,3.8,3.805,0,0,8.398,42.5,18.9051606,13.7,6,P-GPS,
482700,2021-07-28 04:37:07,-27.0455967679031,153.107418313396,13.9,,,19.1051606,11.1,0,2.82976,18,5,15.213,19.1051606,13.9,0,2.8682,0,0,-2,118.8, 0.6, -0.9,0,0,1024,1024,1502,1024,89,1.6,52,3.806,3.802,3.8,3.805,0,0,8.398,42.5,19.1051606,13.9,6,P-GPS,
482800,2021-07-28 04:37:07,-27.0455966133202,153.107418196777,14.1,,,19.3051606,11.1,0,2.81789,18,5,15.204,19.3051606,14.1,0,2.8682,0,0,-2,118.8, 0.8, -0.9,0,0,1024,1024,1502,1024,89,1.6,52,3.804,3.801,3.798,3.802,0,0,8.638,42.5,19.3051606,14.1,6,P-GPS,
482900,2021-07-28 04:37:08,-27.045596603828,153.107418247949,14.3,,,19.5051606,11.1,0,2.81507,18,5,15.204,19.5051606,14.3,0,2.8682,0,0,-2,118.7, 1.1, -0.7,0,0,1024,1024,1502,1024,89,1.6,52,3.804,3.801,3.798,3.802,0,0,8.638,42.5,19.5051606,14.3,6,P-GPS,
483000,2021-07-28 04:37:08,-27.0455966062953,153.107417975082,14.5,,,19.7051606,11.1,0,2.82521,18,5,15.204,19.7051606,14.5,0,2.8682,0,0,-2,118.7, 1.4, -0.6,0,0,1024,1024,1502,1024,89,1.6,52,3.804,3.801,3.798,3.802,0,0,8.638,42.5,19.7051606,14.5,6,P-GPS,
483100,2021-07-28 04:37:08,-27.0455965926223,153.107417995474,14.7,,,19.9051606,11.1,0,2.82305,18,5,15.204,19.9051606,14.7,0,2.8682,0,0,-2,118.7, 1.3, -0.6,0,0,1024,1024,1502,1024,89,1.6,52,3.804,3.801,3.798,3.802,0,0,8.638,42.5,19.9051606,14.7,6,P-GPS,
483200,2021-07-28 04:37:08,-27.0455965917999,153.10741797893,14.9,,,20.1051606,11.1,0,2.82357,18,5,15.204,20.1051606,14.9,0,2.8682,0,0,-2,118.8, 1.2, -0.9,0,0,1024,1024,1502,1024,89,1.6,52,3.804,3.801,3.798,3.802,0,0,8.638,42.5,20.1051606,14.9,6,P-GPS,
483300,2021-07-28 04:37:08,-27.0455965767562,153.107417986279,15.1,,,20.3051606,11.1,0,2.82175,18,5,15.204,20.3051606,15.1,0,2.8682,0,0,-2,118.8, 1, -1.3,0,0,1024,1024,1502,1024,89,1.6,52,3.804,3.801,3.798,3.802,0,0,8.638,42.5,20.3051606,15.1,6,P-GPS,
483400,2021-07-28 04:37:08,-27.0455965855289,153.107417929258,15.3,,,20.5051606,11.1,0,2.82475,18,5,15.204,20.5051606,15.3,0,2.8682,0,0,-2,118.8, 0.9, -1.2,0,0,1024,1024,1502,1024,89,1.6,52,3.804,3.801,3.798,3.802,0,0,8.638,42.5,20.5051606,15.3,6,P-GPS,
483500,2021-07-28 04:37:08,-27.0455965555101,153.107417933452,15.5,,,20.7051606,11.1,0,2.82149,18,5,15.204,20.7051606,15.5,0,2.8682,0,0,-2,118.8, 0.8, -1.1,0,0,1024,1024,1503,1024,89,1.6,52,3.804,3.801,3.798,3.802,0,0,8.638,42.5,20.7051606,15.5,6,P-GPS,
483600,2021-07-28 04:37:08,-27.0455965521518,153.107417770509,15.7,,,20.9051606,11.1,0,2.82719,18,5,15.204,20.9051606,15.7,0,2.8682,0,0,-2,118.8, 0.5, -1.2,0,0,1024,1024,1502,1024,89,1.6,52,3.804,3.801,3.798,3.802,0,0,8.638,42.5,20.9051606,15.7,6,P-GPS,
483700,2021-07-28 04:37:08,-27.0455965051362,153.107417760813,15.9,,,21.1051606,11.1,0,2.82271,18,5,15.204,21.1051606,15.9,0,2.8682,0,0,-2,118.9, 0, -1.2,0,0,1024,1024,1502,1024,89,1.6,52,3.804,3.801,3.798,3.802,0,0,8.638,42.5,21.1051606,15.9,6,P-GPS,
483800,2021-07-28 04:37:08,-27.045596201796,153.107417499027,16.1,,,21.3051606,11.1,0,2.80151,18,5,15.197,21.3051606,16.1,0,2.8682,0,0,-2,118.9, 0, -0.7,0,0,1024,1024,1502,1024,89,1.6,51,3.802,3.799,3.796,3.799,0,0,8.657,42.5,21.3051606,16.1,6,P-GPS,
483900,2021-07-28 04:37:09,-27.045596111911,153.107417487215,16.3,,,21.5051606,11.1,0,2.79277,18,5,15.197,21.5051606,16.3,0,2.8682,0,0,-2,118.9, 0.2, -0.3,0,0,1024,1024,1502,1024,89,1.6,51,3.802,3.799,3.796,3.799,0,0,8.657,42.5,21.5051606,16.3,6,P-GPS,
484000,2021-07-28 04:37:09,-27.0455960482411,153.107417432734,16.5,,,21.7051606,11.1,0,2.78838,18,5,15.197,21.7051606,16.5,0,2.8682,0,0,-2,118.9, 0, -0.1,0,0,1024,1024,1502,1024,89,1.6,51,3.802,3.799,3.796,3.799,0,0,8.657,42.5,21.7051606,16.5,6,P-GPS,
484100,2021-07-28 04:37:09,-27.0455959679855,153.107417433735,16.7,,,21.9051606,11.1,0,2.78014,18,5,15.197,21.9051606,16.7,0,2.8682,0,0,-2,118.8, 0, 0.3,0,0,1024,1024,1502,1024,89,1.6,51,3.802,3.799,3.796,3.799,0,0,8.657,42.5,21.9051606,16.7,6,P-GPS,
484200,2021-07-28 04:37:09,-27.0455959973874,153.107417375214,16.9,,,22.1051606,11.1,0,2.78543,18,5,15.197,22.1051606,16.9,0,2.8682,0,0,-1.9,118.7, 0, 1,0,0,1024,1024,1502,1024,89,1.6,51,3.802,3.799,3.796,3.799,0,0,8.657,42.5,22.1051606,16.9,6,P-GPS,
484300,2021-07-28 04:37:09,-27.0455959850167,153.107417393643,17.1,,,22.3051606,11.1,0,2.78345,18,5,15.197,22.3051606,17.1,0,2.8682,0,0,-1.9,118.7, 0.5, 0.5,0,0,1024,1024,1502,1024,89,1.6,51,3.802,3.799,3.796,3.799,0,0,8.657,42.5,22.3051606,17.1,6,P-GPS,
484400,2021-07-28 04:37:09,-27.0455960989235,153.107417305343,17.3,,,22.5051606,11.1,0,2.79854,18,5,15.197,22.5051606,17.3,0,2.8682,0,0,-1.9,118.7, 0.8, -1,0,0,1024,1024,1502,1024,89,1.6,51,3.802,3.799,3.796,3.799,0,0,8.657,42.5,22.5051606,17.3,6,P-GPS,
484500,2021-07-28 04:37:09,-27.0455961617024,153.107417328966,17.5,,,22.7051606,11.1,0,2.80403,18,5,15.197,22.7051606,17.5,0,2.8682,0,0,-1.9,118.9, 1.3, -1.8,0,0,1024,1024,1502,1024,89,1.6,51,3.802,3.799,3.796,3.799,0,0,8.657,42.5,22.7051606,17.5,6,P-GPS,
484600,2021-07-28 04:37:09,-27.0455961918583,153.10741723197,17.6,,,22.8051606,11.1,0,2.81092,18,5,15.197,22.8051606,17.6,0,2.8682,0,0,-1.9,118.9, 2, -1.9,0,0,1024,1024,1502,1024,89,1.6,51,3.802,3.799,3.796,3.799,0,0,8.657,42.5,22.8051606,17.6,6,P-GPS,
484700,2021-07-28 04:37:09,-27.0455962393194,153.107417299302,17.9,,,23.1051606,11.1,0.1,2.81312,18,5,15.197,23.1051606,17.9,0.1,2.8682,0,0.1,-1.9,118.8, 2.7, -1.9,0,0,1024,1024,1503,1024,89,1.6,51,3.802,3.799,3.796,3.799,0,0,8.657,42.5,23.1051606,17.9,6,P-GPS,
484800,2021-07-28 04:37:09,-27.0455964689149,153.107417394375,18,,,23.2051606,11.1,0.1,2.83291,18,5,15.197,23.2051606,18,0.1,2.8682,0,0.1,-1.9,118.8, 3.2, -1.3,0,0,1024,1024,1503,1024,89,1.6,51,3.802,3.799,3.796,3.799,0,0,8.657,42.5,23.2051606,18,6,P-GPS,
484900,2021-07-28 04:37:10,-27.0455965152452,153.107417482252,18.2,,,23.4051606,11.1,0.1,2.83428,18,5,15.21,23.4051606,18.2,0.1,2.8682,0,0.1,-1.9,118.7, 3.6, -0.7,0,0,1024,1024,1502,1024,89,1.6,51,3.804,3.802,3.8,3.805,0,0,8.194,42.5,23.4051606,18.2,6,P-GPS,
485000,2021-07-28 04:37:10,-27.0455964948558,153.107417438159,18.4,,,23.6051606,11.1,0,2.83388,18,5,15.21,23.6051606,18.4,0.1,2.8682,0,0,-1.9,118.7, 3.6, -0.8,0,0,1024,1024,1502,1024,89,1.6,51,3.804,3.802,3.8,3.805,0,0,8.194,42.5,23.6051606,18.4,6,P-GPS,
485100,2021-07-28 04:37:10,-27.0455965430023,153.107417500528,18.6,,,23.8051606,11.1,0,2.83644,18,5,15.21,23.8051606,18.6,0.1,2.8682,0,0,-1.9,118.8, 3.7, -1.3,0,0,1024,1024,1502,1024,89,1.6,51,3.804,3.802,3.8,3.805,0,0,8.194,42.5,23.8051606,18.6,6,P-GPS,
485200,2021-07-28 04:37:10,-27.0455969024734,153.107417505453,18.8,,,24.0051606,11.1,0,2.87318,18,5,15.21,24.0051606,18.8,0.1,2.87318,0,0,-1.9,118.7, 3.7, -1.3,0,0,1024,1024,1502,1024,89,1.6,51,3.804,3.802,3.8,3.805,0,0,8.194,42.5,24.0051606,18.8,6,P-GPS,
485300,2021-07-28 04:37:10,-27.0455969838942,153.107417569168,19,,,24.2051606,11.1,0,2.87918,18,5,15.21,24.2051606,19,0.1,2.87918,0,0,-1.9,118.7, 4.1, -1.2,0,0,1024,1024,1503,1024,89,1.6,51,3.804,3.802,3.8,3.805,0,0,8.194,42.5,24.2051606,19,6,P-GPS,
485400,2021-07-28 04:37:10,-27.0455970169285,153.107417444931,19.2,,,24.4051606,11.1,0.1,2.88724,18,5,15.21,24.4051606,19.2,0.1,2.88724,-0.1,0,-1.9,118.7, 4.3, -1.6,0,0,1024,1024,1502,1024,89,1.6,51,3.804,3.802,3.8,3.805,0,0,8.194,42.5,24.4051606,19.2,6,P-GPS,
485500,2021-07-28 04:37:10,-27.0455970996171,153.107417483676,19.4,,,24.6051606,11.1,0.1,2.89429,18,5,15.21,24.6051606,19.4,0.1,2.89429,-0.1,0,-1.9,118.8, 4.3, -2.3,0,0,1024,1024,1503,1024,89,1.6,51,3.804,3.802,3.8,3.805,0,0,8.194,42.5,24.6051606,19.4,6,P-GPS,
485600,2021-07-28 04:37:10,-27.0455973922657,153.107417679323,19.6,,,24.8051606,11.1,0.1,2.91726,18,5,15.21,24.8051606,19.6,0.1,2.91726,-0.1,0,-1.9,118.8, 4.5, -2.4,0,0,1024,1024,1503,1024,89,1.6,51,3.804,3.802,3.8,3.805,0,0,8.194,42.5,24.8051606,19.6,6,P-GPS,
485700,2021-07-28 04:37:10,-27.0455974689917,153.107417711142,19.8,,,25.0051606,11.1,0,2.92403,18,5,15.21,25.0051606,19.8,0.1,2.92403,0,0,-2,118.8, 4.4, -2.5,0,0,1024,1024,1503,1024,89,1.6,51,3.804,3.802,3.8,3.805,0,0,8.194,42.5,25.0051606,19.8,6,P-GPS,
485800,2021-07-28 04:37:10,-27.0455975326274,153.107417710411,19.9,,,25.1051606,11.1,0,2.93065,18,5,15.21,25.1051606,19.9,0.1,2.93065,0,0,-1.9,118.9, 4.2, -2.4,0,0,1024,1024,1503,1024,89,1.6,51,3.804,3.802,3.8,3.805,0,0,8.194,42.5,25.1051606,19.9,6,P-GPS,
485900,2021-07-28 04:37:11,-27.0455975788206,153.10741770891,20.1,,,25.3051606,11.1,0,2.93548,18,5,15.217,25.3051606,20.1,0.1,2.93548,0,0,-1.9,118.9, 3.9, -2.1,0,0,1024,1024,1502,1024,89,1.6,51,3.805,3.803,3.801,3.807,0,0,7.861,42.5,25.3051606,20.1,6,P-GPS,
486000,2021-07-28 04:37:11,-27.0455974934591,153.107417717644,20.3,,,25.5051606,11.1,0,2.92633,18,5,15.217,25.5051606,20.3,0.1,2.93548,0,0,-1.9,118.8, 4.1, -2.1,0,0,1024,1024,1502,1024,89,1.6,51,3.805,3.803,3.801,3.807,0,0,7.861,42.5,25.5051606,20.3,6,P-GPS,
486100,2021-07-28 04:37:11,-27.0455975254654,153.10741768394,20.5,,,25.7051606,11.1,0,2.93086,18,5,15.217,25.7051606,20.5,0.1,2.93548,0,0,-1.9,118.7, 3.8, -2.4,0,0,1024,1024,1502,1024,89,1.6,51,3.805,3.803,3.801,3.807,0,0,7.861,42.5,25.7051606,20.5,6,P-GPS,
486200,2021-07-28 04:37:11,-27.045597568643,153.107417740768,20.7,,,25.9051606,11.1,0,2.93328,18,5,15.217,25.9051606,20.7,0.1,2.93548,0,0,-1.9,118.6, 3.6, -2.6,0,0,1024,1024,1503,1024,89,1.6,51,3.805,3.803,3.801,3.807,0,0,7.861,42.5,25.9051606,20.7,6,P-GPS,
486300,2021-07-28 04:37:11,-27.0455976166182,153.10741768798,20.9,,,26.1051606,11.1,0,2.94015,18,5,15.217,26.1051606,20.9,0.1,2.94015,0,0,-1.9,118.6, 3.7, -3,0,0,1024,1024,1503,1024,89,1.6,51,3.805,3.803,3.801,3.807,0,0,7.861,42.5,26.1051606,20.9,6,P-GPS,
486400,2021-07-28 04:37:11,-27.0455975824873,153.10741764481,21.1,,,26.3051606,11.1,0,2.93819,18,5,15.217,26.3051606,21.1,0.1,2.94015,0,0,-1.9,118.9, 3.4, -4,0,0,1024,1024,1503,1024,89,1.6,51,3.805,3.803,3.801,3.807,0,0,7.861,42.5,26.3051606,21.1,6,P-GPS,
486500,2021-07-28 04:37:11,-27.0455976252537,153.107417592907,21.3,,,26.5051606,11.1,0,2.9445,18,5,15.217,26.5051606,21.3,0.1,2.9445,0,0,-1.9,118.9, 3.4, -4,0,0,1024,1024,1502,1024,89,1.6,51,3.805,3.803,3.801,3.807,0,0,7.861,42.5,26.5051606,21.3,6,P-GPS,
486600,2021-07-28 04:37:11,-27.0455977139736,153.10741767309,21.4,,,26.6051606,11.1,0,2.95077,18,5,15.217,26.6051606,21.4,0.1,2.95077,0,0,-1.9,118.7, 3.6, -3.5,0,0,1024,1024,1502,1024,89,1.6,51,3.805,3.803,3.801,3.807,0,0,7.861,42.5,26.6051606,21.4,6,P-GPS,
486700,2021-07-28 04:37:11,-27.0455977488926,153.107417641886,21.6,,,26.8051606,11.1,0,2.95551,18,5,15.217,26.8051606,21.6,0.1,2.95551,0,0,-1.9,118.7, 3.8, -4.2,0,0,1024,1024,1503,1024,89,1.6,51,3.805,3.803,3.801,3.807,0,0,7.861,42.5,26.8051606,21.6,6,P-GPS,
486800,2021-07-28 04:37:11,-27.0455976268643,153.107417612876,21.8,,,27.0051606,11.1,0,2.94394,18,5,15.217,27.0051606,21.8,0.1,2.95551,0,0,-1.9,118.6, 4.2, -3.6,0,0,1024,1024,1502,1024,89,1.6,51,3.805,3.803,3.801,3.807,0,0,7.861,42.5,27.0051606,21.8,6,P-GPS,
486900,2021-07-28 04:37:12,-27.0455976260762,153.107417588559,22,,,27.2051606,11.1,0,2.94474,18,5,15.217,27.2051606,22,0.1,2.95551,0,0,-1.9,118.7, 3.9, -3.5,0,0,1024,1024,1502,1024,89,1.6,51,3.805,3.803,3.801,3.807,0,0,7.861,42.5,27.2051606,22,6,P-GPS,
487000,2021-07-28 04:37:12,-27.0455976884096,153.107417662701,22.2,,,27.4051606,11.1,0,2.9485,18,5,15.201,27.4051606,22.2,0.1,2.95551,0,0,-2,118.7, 3.9, -3.1,0,0,1024,1024,1502,1024,89,1.6,51,3.804,3.801,3.796,3.799,0,0,8.046,42.6,27.4051606,22.2,6,P-GPS,
487100,2021-07-28 04:37:12,-27.0455976889579,153.107417653852,22.4,,,27.6051606,11.1,0,2.94888,18,5,15.201,27.6051606,22.4,0.1,2.95551,0,0,-1.9,118.6, 4.3, -3.4,0,0,1024,1024,1503,1024,89,1.6,51,3.804,3.801,3.796,3.799,0,0,8.046,42.6,27.6051606,22.4,6,P-GPS,
487200,2021-07-28 04:37:12,-27.0455976387553,153.107417705447,22.6,,,27.8051606,11.1,0,2.94181,18,5,15.201,27.8051606,22.6,0.1,2.95551,0,0,-1.9,118.5, 4.5, -3.1,0,0,1024,1024,1503,1024,89,1.6,51,3.804,3.801,3.796,3.799,0,0,8.046,42.6,27.8051606,22.6,6,P-GPS,
487300,2021-07-28 04:37:12,-27.0455976304625,153.107417699099,22.8,,,28.0051606,11.1,0,2.94118,18,5,15.201,28.0051606,22.8,0.1,2.95551,0,0,-1.9,118.6, 4.3, -3.3,0,0,1024,1024,1502,1024,89,1.6,51,3.804,3.801,3.796,3.799,0,0,8.046,42.6,28.0051606,22.8,6,P-GPS,
487400,2021-07-28 04:37:12,-27.0455976277553,153.107417861542,23,,,28.2051606,11.1,0,2.93508,17,5,15.201,28.2051606,23,0.1,2.95551,0,0,-1.9,118.7, 4.1, -3.1,0,0,1024,1024,1502,1024,89,1.6,51,3.804,3.801,3.796,3.799,0,0,8.046,42.6,28.2051606,23,6,P-GPS,
487500,2021-07-28 04:37:12,-27.0455976073316,153.107417874239,23.2,,,28.4051606,11.1,0,2.9325,17,5,15.201,28.4051606,23.2,0.1,2.95551,0,0,-2,118.6, 4.2, -2.9,0,0,1024,1024,1503,1024,89,1.6,51,3.804,3.801,3.796,3.799,0,0,8.046,42.6,28.4051606,23.2,6,P-GPS,
487600,2021-07-28 04:37:12,-27.0455977517711,153.107418010364,23.4,,,28.6051606,11.1,0,2.9427,18,5,15.201,28.6051606,23.4,0.1,2.95551,0,0,-2,118.5, 4.7, -2.9,0,0,1024,1024,1502,1024,89,1.6,51,3.804,3.801,3.796,3.799,0,0,8.046,42.6,28.6051606,23.4,6,P-GPS,
487700,2021-07-28 04:37:12,-27.0455977610578,153.107418047108,23.6,,,28.8051606,11.1,0,2.94238,18,5,15.201,28.8051606,23.6,0.1,2.95551,0,0,-1.9,118.5, 4.9, -3.5,0,0,1024,1024,1503,1024,89,1.6,51,3.804,3.801,3.796,3.799,0,0,8.046,42.6,28.8051606,23.6,6,P-GPS,
487800,2021-07-28 04:37:12,-27.0455977745936,153.107418183619,23.8,,,29.0051606,11.1,0,2.93905,17,5,15.201,29.0051606,23.8,0.1,2.95551,0,0,-1.9,118.5, 5, -3.5,0,0,1024,1024,1502,1024,89,1.6,51,3.804,3.801,3.796,3.799,0,0,8.046,42.6,29.0051606,23.8,6,P-GPS,
487900,2021-07-28 04:37:13,-27.0455977767182,153.107418228904,24,,,29.2051606,11.1,0,2.93771,17,5,15.201,29.2051606,24,0.1,2.95551,0,0,-1.9,118.6, 4.8, -3.6,0,0,1024,1024,1503,1024,89,1.6,51,3.804,3.801,3.796,3.799,0,0,8.046,42.6,29.2051606,24,6,P-GPS,
488000,2021-07-28 04:37:13,-27.0455979091982,153.107418312203,24.2,,,29.4051606,11.1,0,2.94869,18,5,15.201,29.4051606,24.2,0.1,2.95551,0,0,-1.9,118.5, 4.9, -2.5,0,0,1024,1024,1502,1024,89,1.6,51,3.804,3.801,3.796,3.799,0,0,8.046,42.6,29.4051606,24.2,6,P-GPS,
488100,2021-07-28 04:37:13,-27.0455978964506,153.107418359759,24.4,,,29.6051606,11.1,0,2.94574,18,5,15.179,29.6051606,24.4,0.1,2.95551,0,0,-2,118.5, 4.9, -2.4,0,0,1024,1024,1503,1024,89,1.6,51,3.798,3.795,3.792,3.794,0,0,8.396,42.6,29.6051606,24.4,6,P-GPS,
488200,2021-07-28 04:37:13,-27.0455978115002,153.107418541401,24.7,,,29.9051606,11.1,0,2.93075,18,5,15.179,29.9051606,24.7,0.1,2.95551,0,0,-2,118.6, 4.7, -2.1,0,0,1024,1024,1502,1024,89,1.6,51,3.798,3.795,3.792,3.794,0,0,8.396,42.6,29.9051606,24.7,6,P-GPS,
488300,2021-07-28 04:37:13,-27.0455977865874,153.10741857599,24.9,,,30.1051606,11.1,0,2.92698,18,5,15.179,30.1051606,24.9,0.1,2.95551,0,0,-2.1,118.7, 4.4, -1.8,0,0,1024,1024,1502,1024,89,1.6,51,3.798,3.795,3.792,3.794,0,0,8.396,42.6,30.1051606,24.9,6,P-GPS,
488400,2021-07-28 04:37:13,-27.0455979486064,153.107418566256,25.1,,,30.3051606,11.1,0,2.94428,18,5,15.179,30.3051606,25.1,0.1,2.95551,0,0,-2.1,118.9, 4.4, -2.1,0,0,1024,1024,1502,1024,89,1.6,51,3.798,3.795,3.792,3.794,0,0,8.396,42.6,30.3051606,25.1,6,P-GPS,
488500,2021-07-28 04:37:13,-27.0455979776314,153.107418578914,25.3,,,30.5051606,11.1,0,2.9469,18,5,15.179,30.5051606,25.3,0.1,2.95551,0,0,-2.1,118.8, 4.9, -3,0,0,1024,1024,1503,1024,89,1.6,51,3.798,3.795,3.792,3.794,0,0,8.396,42.6,30.5051606,25.3,6,P-GPS,
488600,2021-07-28 04:37:13,-27.0455978932294,153.107418741434,25.5,,,30.7051606,11.1,0,2.9327,17,5,15.179,30.7051606,25.5,0.1,2.95551,0,0,-2,118.8, 5, -3.7,0,0,1024,1024,1502,1024,89,1.6,51,3.798,3.795,3.792,3.794,0,0,8.396,42.6,30.7051606,25.5,6,P-GPS,
488700,2021-07-28 04:37:13,-27.0455979027901,153.107418761556,25.7,,,30.9051606,11.1,0,2.93304,17,5,15.179,30.9051606,25.7,0.1,2.95551,0,0,-2,118.6, 4.8, -3.6,0,0,1024,1024,1502,1024,89,1.6,51,3.798,3.795,3.792,3.794,0,0,8.396,42.6,30.9051606,25.7,6,P-GPS,
488800,2021-07-28 04:37:13,-27.0455978907963,153.107418835468,25.9,,,31.1051606,11.1,0,2.92938,18,5,15.179,31.1051606,25.9,0.1,2.95551,0,0,-2,118.6, 4.8, -3.2,0,0,1024,1024,1502,1024,89,1.6,51,3.798,3.795,3.792,3.794,0,0,8.396,42.6,31.1051606,25.9,6,P-GPS,
488900,2021-07-28 04:37:14,-27.0455978671857,153.107418874597,26.1,,,31.3051606,11.1,0,2.92563,18,5,15.179,31.3051606,26.1,0.1,2.95551,0,0,-2,118.7, 4.6, -2.6,0,0,1024,1024,1503,1024,89,1.6,51,3.798,3.795,3.792,3.794,0,0,8.396,42.6,31.3051606,26.1,6,P-GPS,
489000,2021-07-28 04:37:14,-27.0455977835033,153.107418851473,26.3,,,31.5051606,11.1,0,2.91758,18,5,15.179,31.5051606,26.3,0.1,2.95551,0,0,-2,118.8, 4.7, -2.1,0,0,1024,1024,1502,1024,89,1.6,51,3.798,3.795,3.792,3.794,0,0,8.396,42.6,31.5051606,26.3,6,P-GPS,
489100,2021-07-28 04:37:14,-27.0455977521481,153.10741887906,26.5,,,31.7051606,11.1,0,2.91339,18,5,15.208,31.7051606,26.5,0.1,2.95551,0,0,-2,118.9, 4.5, -1.8,0,0,1024,1024,1502,1024,89,1.6,51,3.805,3.802,3.798,3.802,0,0,7.682,42.6,31.7051606,26.5,6,P-GPS,
489200,2021-07-28 04:37:14,-27.0455974730696,153.107418809112,26.7,,,31.9051606,11.1,0,2.8864,18,5,15.208,31.9051606,26.7,0.1,2.95551,0,0,-2,118.9, 4.3, -1.7,0,0,1024,1024,1502,1024,89,1.6,51,3.805,3.802,3.798,3.802,0,0,7.682,42.6,31.9051606,26.7,6,P-GPS,
489300,2021-07-28 04:37:14,-27.0455974441132,153.107418799224,26.9,,,32.1051606,11.1,0,2.88369,18,5,15.208,32.1051606,26.9,0.1,2.95551,0,0,-2,118.8, 4.4, -1.9,0,0,1024,1024,1502,1024,89,1.6,51,3.805,3.802,3.798,3.802,0,0,7.682,42.6,32.1051606,26.9,6,P-GPS,
489400,2021-07-28 04:37:14,-27.0455974444216,153.107418843663,27.1,,,32.3051606,11.1,0,2.88225,18,5,15.208,32.3051606,27.1,0.1,2.95551,0,0,-2,118.7, 4.4, -2.2,0,0,1024,1024,1503,1024,89,1.6,51,3.805,3.802,3.798,3.802,0,0,7.682,42.6,32.3051606,27.1,6,P-GPS,
489500,2021-07-28 04:37:14,-27.0455974612129,153.107418818384,27.3,,,32.5051606,11.1,0,2.88485,18,5,15.208,32.5051606,27.3,0.1,2.95551,0,0,-1.9,118.7, 4.4, -2.8,0,0,1024,1024,1502,1024,89,1.6,51,3.805,3.802,3.798,3.802,0,0,7.682,42.6,32.5051606,27.3,6,P-GPS,
489600,2021-07-28 04:37:14,-27.0455974800603,153.107418752823,27.5,,,32.7051606,11.1,0,2.88899,18,5,15.208,32.7051606,27.5,0.1,2.95551,0,0,-1.9,118.7, 4.1, -3.4,0,0,1024,1024,1502,1024,89,1.6,51,3.805,3.802,3.798,3.802,0,0,7.682,42.6,32.7051606,27.5,6,P-GPS,
489700,2021-07-28 04:37:14,-27.0455975334155,153.107418724389,27.7,,,32.9051606,11.1,0,2.89553,18,5,15.208,32.9051606,27.7,0.1,2.95551,0,0,-1.9,118.6, 4.6, -3.9,0,0,1024,1024,1502,1024,89,1.6,51,3.805,3.802,3.798,3.802,0,0,7.682,42.6,32.9051606,27.7,6,P-GPS,
489800,2021-07-28 04:37:14,-27.0455974593624,153.107418616658,27.9,,,33.1051606,11.1,0,2.89137,18,5,15.208,33.1051606,27.9,0.1,2.95551,0,0,-1.9,118.6, 4.8, -4.1,0,0,1024,1024,1503,1024,89,1.6,51,3.805,3.802,3.798,3.802,0,0,7.682,42.6,33.1051606,27.9,6,P-GPS,
489900,2021-07-28 04:37:15,-27.0455975012036,153.107418603038,28.1,,,33.3051606,11.1,0,2.89621,18,5,15.208,33.3051606,28.1,0.1,2.95551,0,0,-2,118.8, 4.1, -3.6,0,0,1024,1024,1503,1024,89,1.6,51,3.805,3.802,3.798,3.802,0,0,7.682,42.6,33.3051606,28.1,6,P-GPS,
490000,2021-07-28 04:37:15,-27.0455973266083,153.107418428745,28.3,,,33.5051606,11.1,0,2.88389,18,5,15.208,33.5051606,28.3,0.1,2.95551,0,0,-2,118.8, 5.1, -4,0,0,1024,1024,1503,1024,89,1.6,51,3.805,3.802,3.798,3.802,0,0,7.682,42.6,33.5051606,28.3,6,P-GPS,
490100,2021-07-28 04:37:15,-27.0455973713622,153.107418414971,28.6,,,33.8051606,11.1,0,2.88903,18,5,15.208,33.8051606,28.6,0.1,2.95551,0,0,-2,118.6, 5.3, -4,0,0,1024,1024,1503,1024,89,1.6,51,3.805,3.802,3.798,3.802,0,0,7.682,42.6,33.8051606,28.6,6,P-GPS,
490200,2021-07-28 04:37:15,-27.0455973615616,153.107418359643,28.7,,,33.9051606,11.1,0,2.88992,18,5,15.208,33.9051606,28.7,0.1,2.95551,0,0,-2,118.6, 5.1, -4.1,0,0,1024,1024,1503,1024,89,1.6,51,3.807,3.805,3.798,3.798,0,0,7.761,42.6,33.9051606,28.7,6,P-GPS,
490300,2021-07-28 04:37:15,-27.0455974328047,153.107418338828,28.9,,,34.1051606,11.1,0.1,2.89806,18,5,15.208,34.1051606,28.9,0.1,2.95551,-0.1,0,-2,118.6, 5.3, -4.9,0,0,1024,1024,1502,1024,89,1.6,51,3.807,3.805,3.798,3.798,0,0,7.761,42.6,34.1051606,28.9,6,P-GPS,
490400,2021-07-28 04:37:15,-27.0455977450203,153.107418093779,29.2,,,34.4051606,11.1,0.1,2.93908,18,5,15.208,34.4051606,29.2,0.1,2.95551,-0.1,0,-2,118.4, 5.9, -5.6,0,0,1024,1024,1502,1024,89,1.6,51,3.807,3.805,3.798,3.798,0,0,7.761,42.6,34.4051606,29.2,6,P-GPS,
490500,2021-07-28 04:37:15,-27.0455978655751,153.107418081197,29.4,,,34.6051606,11.1,0.1,2.95207,18,5,15.208,34.6051606,29.4,0.1,2.95551,-0.1,0,-2,118.4, 6.2, -6.1,0,0,1024,1024,1503,1024,89,1.6,51,3.807,3.805,3.798,3.798,0,0,7.761,42.6,34.6051606,29.4,6,P-GPS,
490600,2021-07-28 04:37:15,-27.0455980605257,153.107417756774,29.6,,,34.8051606,11.1,0.1,2.98372,18,5,15.208,34.8051606,29.6,0.1,2.98372,-0.1,0,-2,118.4, 6.4, -6.4,0,0,1024,1024,1502,1024,89,1.6,51,3.807,3.805,3.798,3.798,0,0,7.761,42.6,34.8051606,29.6,6,P-GPS,
490700,2021-07-28 04:37:15,-27.0455981518498,153.10741774223,29.8,,,35.0051606,11.1,0.1,2.99372,18,5,15.208,35.0051606,29.8,0.1,2.99372,-0.1,0,-2,118.4, 6.4, -6.2,0,0,1024,1024,1502,1024,89,1.6,51,3.807,3.805,3.798,3.798,0,0,7.761,42.6,35.0051606,29.8,6,P-GPS,
490800,2021-07-28 04:37:15,-27.0455981719309,153.1074177652,30.1,,,35.3051606,11.1,0,2.995,18,5,15.208,35.3051606,30.1,0.1,2.995,0,0,-2,118.4, 6.3, -6.1,0,0,1024,1024,1502,1024,89,1.6,51,3.807,3.805,3.798,3.798,0,0,7.761,42.6,35.3051606,30.1,6,P-GPS,
490900,2021-07-28 04:37:16,-27.0455982264855,153.107417787554,30.3,,,35.5051606,11.1,0,2.99988,18,5,15.208,35.5051606,30.3,0.1,2.99988,0,0,-2,118.4, 6.4, -5.6,0,0,1024,1024,1503,1024,89,1.6,51,3.807,3.805,3.798,3.798,0,0,7.761,42.6,35.5051606,30.3,6,P-GPS,
491000,2021-07-28 04:37:16,-27.0455982497877,153.107417756927,30.4,,,35.6051606,11.1,0,3.00338,18,5,15.208,35.6051606,30.4,0.1,3.00338,0,0,-2,118.4, 6.7, -5.5,0,0,1024,1024,1502,1024,89,1.6,51,3.807,3.805,3.798,3.798,0,0,7.761,42.6,35.6051606,30.4,6,P-GPS,
491100,2021-07-28 04:37:16,-27.0455982862831,153.107417810985,30.6,,,35.8051606,11.1,0,3.00528,18,5,15.208,35.8051606,30.6,0.1,3.00528,0,0,-1.9,118.2, 7, -4.9,0,0,1024,1024,1503,1024,89,1.6,51,3.807,3.805,3.798,3.798,0,0,7.761,42.6,35.8051606,30.6,6,P-GPS,
491200,2021-07-28 04:37:16,-27.0455982757286,153.107417882511,30.9,,,36.1051606,11.1,0,3.00169,18,5,15.183,36.1051606,30.9,0.1,3.00528,0,0,-2,118.2, 7.3, -4.9,0,0,1024,1024,1503,1024,89,1.6,51,3.799,3.796,3.793,3.795,0,0,8.087,42.6,36.1051606,30.9,6,P-GPS,
491300,2021-07-28 04:37:16,-27.0455983118471,153.107417954498,31.1,,,36.3051606,11.1,0,3.00295,18,5,15.183,36.3051606,31.1,0.1,3.00528,0,0,-2,118.2, 7.6, -5,0,0,1024,1024,1503,1024,89,1.6,51,3.799,3.796,3.793,3.795,0,0,8.087,42.6,36.3051606,31.1,6,P-GPS,
491400,2021-07-28 04:37:16,-27.0455985302712,153.107418073964,31.3,,,36.5051606,11.1,0,3.02166,18,5,15.183,36.5051606,31.3,0.1,3.02166,0,0,-1.9,118.1, 7.9, -5.1,0,0,1024,1024,1503,1024,89,1.6,51,3.799,3.796,3.793,3.795,0,0,8.087,42.6,36.5051606,31.3,6,P-GPS,
491500,2021-07-28 04:37:16,-27.0455985825641,153.107418155955,31.5,,,36.7051606,11.1,0.1,3.02435,18,5,15.183,36.7051606,31.5,0.1,3.02435,0,0.1,-1.9,118.1, 8.2, -5.2,0,0,1024,1024,1503,1024,89,1.6,51,3.799,3.796,3.793,3.795,0,0,8.087,42.6,36.7051606,31.5,6,P-GPS,
491600,2021-07-28 04:37:16,-27.045598786253,153.107418331633,31.7,,,36.9051606,11.1,0,3.03984,18,5,15.183,36.9051606,31.7,0.1,3.03984,0,0,-2,118.1, 8.5, -5.3,0,0,1024,1024,1503,1024,89,1.6,51,3.799,3.796,3.793,3.795,0,0,8.087,42.6,36.9051606,31.7,6,P-GPS,
491700,2021-07-28 04:37:16,-27.0455988460164,153.107418414509,31.9,,,37.1051606,11.1,0,3.0434,18,5,15.183,37.1051606,31.9,0.1,3.0434,0,0,-2,118.1, 8.7, -5.4,0,0,1024,1024,1503,1024,89,1.6,51,3.799,3.796,3.793,3.795,0,0,8.087,42.6,37.1051606,31.9,6,P-GPS,
491800,2021-07-28 04:37:16,-27.0455991561416,153.107418378342,32.2,,,37.4051606,11.1,0,3.07716,18,5,15.183,37.4051606,32.2,0.1,3.07716,0,0,-2,118.1, 8.9, -5.6,0,0,1024,1024,1502,1024,89,1.6,51,3.799,3.796,3.793,3.795,0,0,8.087,42.6,37.4051606,32.2,6,P-GPS,
491900,2021-07-28 04:37:17,-27.0455992246433,153.107418428014,32.4,,,37.6051606,11.1,0,3.08276,18,5,15.183,37.6051606,32.4,0.1,3.08276,0,0,-2,118.1, 8.9, -5.9,0,0,1024,1024,1503,1024,89,1.6,51,3.799,3.796,3.793,3.795,0,0,8.087,42.6,37.6051606,32.4,6,P-GPS,
492000,2021-07-28 04:37:17,-27.0455994698993,153.107418376226,32.6,,,37.8051606,11.1,0,3.11022,18,5,15.183,37.8051606,32.6,0.1,3.11022,0,0,-2,118.1, 8.8, -6,0,0,1024,1024,1503,1024,89,1.6,51,3.799,3.796,3.793,3.795,0,0,8.087,42.6,37.8051606,32.6,6,P-GPS,
492100,2021-07-28 04:37:17,-27.045599527538,153.107418385152,32.8,,,38.0051606,11.1,0,3.11601,18,5,15.183,38.0051606,32.8,0.1,3.11601,0,0,-2,118.1, 8.7, -6.2,0,0,1024,1024,1503,1024,89,1.6,51,3.799,3.796,3.793,3.795,0,0,8.087,42.6,38.0051606,32.8,6,P-GPS,
492200,2021-07-28 04:37:17,-27.0455995972734,153.107418524548,33,,,38.2051606,11.1,0,3.11894,18,5,15.183,38.2051606,33,0.1,3.11894,0,0,-2,118.1, 8.4, -6.4,0,0,1024,1024,1502,1024,89,1.6,51,3.799,3.796,3.793,3.795,0,0,8.087,42.6,38.2051606,33,6,P-GPS,
492300,2021-07-28 04:37:17,-27.0455996194448,153.107418532744,33.2,,,38.4051606,11.1,0,3.12102,18,5,15.159,38.4051606,33.2,0.1,3.12102,0,0,-2,118.2, 8.1, -6.3,0,0,1024,1024,1503,1024,89,1.6,51,3.792,3.789,3.787,3.791,0,0,8.958,42.6,38.4051606,33.2,6,P-GPS,
492400,2021-07-28 04:37:17,-27.0455995420334,153.107418586147,33.4,,,38.6051606,11.1,0,3.11118,18,5,15.159,38.6051606,33.4,0.1,3.12102,0,0,-2,118.1, 8.1, -5.9,0,0,1024,1024,1502,1024,89,1.6,51,3.792,3.789,3.787,3.791,0,0,8.958,42.6,38.6051606,33.4,6,P-GPS,
492500,2021-07-28 04:37:17,-27.045599518971,153.107418612118,33.6,,,38.8051606,11.1,0,3.10793,18,5,15.159,38.8051606,33.6,0.1,3.12102,0,0,-2,118.2, 8.2, -5.5,0,0,1024,1024,1503,1024,89,1.6,51,3.792,3.789,3.787,3.791,0,0,8.958,42.6,38.8051606,33.6,6,P-GPS,
492600,2021-07-28 04:37:17,-27.0455993814879,153.107418749206,33.8,,,39.0051606,11.1,0,3.08914,17,5,15.159,39.0051606,33.8,0.1,3.12102,0,0,-2,118.3, 8.2, -5.2,0,0,1024,1024,1502,1024,89,1.6,51,3.792,3.789,3.787,3.791,0,0,8.958,42.6,39.0051606,33.8,6,P-GPS,
492700,2021-07-28 04:37:17,-27.0455993218959,153.107418788912,34,,,39.2051606,11.1,0,3.08162,17,5,15.159,39.2051606,34,0.1,3.12102,0,0,-2,118.2, 8.3, -4.7,0,0,1024,1024,1503,1024,89,1.6,51,3.792,3.789,3.787,3.791,0,0,8.958,42.6,39.2051606,34,6,P-GPS,
492800,2021-07-28 04:37:17,-27.0455991481572,153.107419039464,34.2,,,39.4051606,11.1,0.1,3.05555,17,5,15.159,39.4051606,34.2,0.1,3.12102,0.1,0,-2,118.3, 8.2, -4.3,0,0,1024,1024,1503,1024,89,1.6,51,3.792,3.789,3.787,3.791,0,0,8.958,42.6,39.4051606,34.2,6,P-GPS,
492900,2021-07-28 04:37:18,-27.0455990691352,153.107419085711,34.5,,,39.7051606,11.1,0.1,3.04578,17,5,15.159,39.7051606,34.5,0.1,3.12102,0.1,0,-2,118.4, 8.2, -3.9,0,0,1024,1024,1503,1024,89,1.6,51,3.792,3.789,3.787,3.791,0,0,8.958,42.6,39.7051606,34.5,6,P-GPS,
493000,2021-07-28 04:37:18,-27.045599011942,153.107419248616,34.7,,,39.9051606,11.1,0,3.0348,18,5,15.159,39.9051606,34.7,0.1,3.12102,0,0,-2,118.4, 8, -3.7,0,0,1024,1024,1503,1024,89,1.6,51,3.792,3.789,3.787,3.791,0,0,8.958,42.6,39.9051606,34.7,6,P-GPS,
